{
"type": "FeatureCollection",
"crs": { "type": "name", "properties": { "name": "urn:ogc:def:crs:OGC:1.3:CRS84" } },
"features": [
{ "type": "Feature", "properties": { "level_0": 0, "level_1": 0, "ecole": "Amidonniers", "niveau": "élémentaire", "codsti": 1190413, "index": 1, "codpos": 31000, "rne": "0312088B", "libelle": "ALL DE BRIENNE", "secteur_action_scolaire": "C. EST", "nom_ecole": "Ecole élémentaire Amidonniers" }, "geometry": { "type": "Point", "coordinates": [ 1.42136735903258, 43.609294361879726 ] } },
{ "type": "Feature", "properties": { "level_0": 1, "level_1": 0, "ecole": "Becanne Maurice", "niveau": "élémentaire", "codsti": 4848046, "index": 5, "codpos": 31300, "rne": "0311025W", "libelle": "AV DE MURET", "secteur_action_scolaire": "C. OUEST", "nom_ecole": "Ecole élémentaire Becanne Maurice" }, "geometry": { "type": "Point", "coordinates": [ 1.426397386846141, 43.582953380898694 ] } },
{ "type": "Feature", "properties": { "level_0": 2, "level_1": 0, "ecole": "Bert Paul", "niveau": "élémentaire", "codsti": 4112006, "index": 7, "codpos": 31100, "rne": "0312402T", "libelle": "CHE DE LIFFARD", "secteur_action_scolaire": "OUEST", "nom_ecole": "Ecole élémentaire Bert Paul" }, "geometry": { "type": "Point", "coordinates": [ 1.378266485298608, 43.559661604144829 ] } },
{ "type": "Feature", "properties": { "level_0": 3, "level_1": 0, "ecole": "Dortis", "niveau": "élémentaire", "codsti": 2390457, "index": 27, "codpos": 31200, "rne": "0312977Te", "libelle": "CHE DE DORTIS", "secteur_action_scolaire": "NORD", "nom_ecole": "Ecole élémentaire Dortis" }, "geometry": { "type": "Point", "coordinates": [ 1.435392835355586, 43.666578416253934 ] } },
{ "type": "Feature", "properties": { "level_0": 4, "level_1": 0, "ecole": "Falguière", "niveau": "élémentaire", "codsti": 297654, "index": 33, "codpos": 31000, "rne": "0310916C", "libelle": "RUE D ARTAGNAN", "secteur_action_scolaire": "C. EST", "nom_ecole": "Ecole élémentaire Falguière" }, "geometry": { "type": "Point", "coordinates": [ 1.430207804934197, 43.607315079417901 ] } },
{ "type": "Feature", "properties": { "level_0": 5, "level_1": 0, "ecole": "Hugo Victor", "niveau": "élémentaire", "codsti": 5886403, "index": 47, "codpos": 31100, "rne": "0312196U", "libelle": "IMP THEODORE RICHARD", "secteur_action_scolaire": "OUEST", "nom_ecole": "Ecole élémentaire Hugo Victor" }, "geometry": { "type": "Point", "coordinates": [ 1.402456714352285, 43.566286230477189 ] } },
{ "type": "Feature", "properties": { "level_0": 6, "level_1": 0, "ecole": "Julien Jules", "niveau": "élémentaire", "codsti": 2518456, "index": 52, "codpos": 31400, "rne": "0312273C", "libelle": "AV DES ECOLES JULES JULIEN", "secteur_action_scolaire": "SUD EST", "nom_ecole": "Ecole élémentaire Julien Jules" }, "geometry": { "type": "Point", "coordinates": [ 1.453776862367176, 43.574022646022463 ] } },
{ "type": "Feature", "properties": { "level_0": 7, "level_1": 0, "ecole": "Lesseps Ferdinand De", "niveau": "élémentaire", "codsti": 5561651, "index": 60, "codpos": 31100, "rne": "0312143L", "libelle": "CHE DES PRADETTES", "secteur_action_scolaire": "OUEST", "nom_ecole": "Ecole élémentaire Lesseps Ferdinand De" }, "geometry": { "type": "Point", "coordinates": [ 1.38522999813037, 43.5790048760853 ] } },
{ "type": "Feature", "properties": { "level_0": 8, "level_1": 0, "ecole": "Macé Jean", "niveau": "élémentaire", "codsti": 2496011, "index": 63, "codpos": 31500, "rne": "0312154Y", "libelle": "CHE DE DUROUX", "secteur_action_scolaire": "C. EST", "nom_ecole": "Ecole élémentaire Macé Jean" }, "geometry": { "type": "Point", "coordinates": [ 1.478268707510161, 43.595784519920798 ] } },
{ "type": "Feature", "properties": { "level_0": 9, "level_1": 0, "ecole": "Oustalous (Les)", "niveau": "élémentaire", "codsti": 2624010, "index": 76, "codpos": 31100, "rne": "0311024V", "libelle": "RTE D ESPAGNE", "secteur_action_scolaire": "C. OUEST", "nom_ecole": "Ecole élémentaire Oustalous (Les)" }, "geometry": { "type": "Point", "coordinates": [ 1.424266328453772, 43.574761756152604 ] } },
{ "type": "Feature", "properties": { "level_0": 10, "level_1": 0, "ecole": "Saliège Jules-Géraud (ex Alphand)", "niveau": "élémentaire", "codsti": 115256, "index": 86, "codpos": 31200, "rne": "0312892Ae", "libelle": "RUE LISE MEITNER", "secteur_action_scolaire": "NORD", "nom_ecole": "Ecole élémentaire Saliège Jules-Géraud (ex Alphand)" }, "geometry": { "type": "Point", "coordinates": [ 1.433820761793812, 43.655130680213034 ] } },
{ "type": "Feature", "properties": { "level_0": 11, "level_1": 0, "ecole": "Sept Deniers", "niveau": "élémentaire", "codsti": 912031, "index": 88, "codpos": 31200, "rne": "0312080T", "libelle": "RTE DE BLAGNAC", "secteur_action_scolaire": "NORD", "nom_ecole": "Ecole élémentaire Sept Deniers" }, "geometry": { "type": "Point", "coordinates": [ 1.408793759592796, 43.616662650295616 ] } },
{ "type": "Feature", "properties": { "level_0": 12, "level_1": 0, "ecole": "Soupetard", "niveau": "élémentaire", "codsti": 6649612, "index": 90, "codpos": 31500, "rne": "0312174V", "libelle": "RUE DE LA SOLIDARITE", "secteur_action_scolaire": "C. EST", "nom_ecole": "Ecole élémentaire Soupetard" }, "geometry": { "type": "Point", "coordinates": [ 1.477442633131743, 43.607347437022369 ] } },
{ "type": "Feature", "properties": { "level_0": 13, "level_1": 0, "ecole": "Triolet Elsa", "niveau": "élémentaire", "codsti": 8371018, "index": 94, "codpos": 31100, "rne": "0312107X", "libelle": "RUE EMILE PELLETIER", "secteur_action_scolaire": "OUEST", "nom_ecole": "Ecole élémentaire Triolet Elsa" }, "geometry": { "type": "Point", "coordinates": [ 1.394434690438584, 43.572222033427828 ] } },
{ "type": "Feature", "properties": { "level_0": 14, "level_1": 0, "ecole": "Bonhoure", "niveau": "élémentaire", "codsti": 5408034, "index": 9, "codpos": 31500, "rne": "0310929S", "libelle": "PL MARIUS PINEL", "secteur_action_scolaire": "C. EST", "nom_ecole": "Ecole élémentaire Bonhoure" }, "geometry": { "type": "Point", "coordinates": [ 1.465877731815201, 43.602383797052532 ] } },
{ "type": "Feature", "properties": { "level_0": 15, "level_1": 0, "ecole": "Bonnefoy", "niveau": "élémentaire", "codsti": 2716831, "index": 10, "codpos": 31500, "rne": "0310992K", "libelle": "RUE DU FAUBOURG BONNEFOY", "secteur_action_scolaire": "C. EST", "nom_ecole": "Ecole élémentaire Bonnefoy" }, "geometry": { "type": "Point", "coordinates": [ 1.454297705430024, 43.616935476219666 ] } },
{ "type": "Feature", "properties": { "level_0": 16, "level_1": 0, "ecole": "Canto Laouzetto", "niveau": "élémentaire", "codsti": 1404826, "index": 15, "codpos": 31100, "rne": "0313018Me", "libelle": "CHEMINEMENT ROBERT CANBERT", "secteur_action_scolaire": "OUEST", "nom_ecole": "Ecole élémentaire Canto Laouzetto" }, "geometry": { "type": "Point", "coordinates": [ 1.387946987548744, 43.559984818796309 ] } },
{ "type": "Feature", "properties": { "level_0": 17, "level_1": 0, "ecole": "Château d'Ancely", "niveau": "élémentaire", "codsti": 7308818, "index": 16, "codpos": 31300, "rne": "0312111B", "libelle": "ALL DU VIVARAIS", "secteur_action_scolaire": "OUEST", "nom_ecole": "Ecole élémentaire Château d'Ancely" }, "geometry": { "type": "Point", "coordinates": [ 1.398316413013646, 43.618524477814411 ] } },
{ "type": "Feature", "properties": { "level_0": 18, "level_1": 0, "ecole": "Dauriac Sylvain", "niveau": "élémentaire", "codsti": 3824054, "index": 24, "codpos": 31100, "rne": "0312411C", "libelle": "RUE PAUL LAMBERT", "secteur_action_scolaire": "C. OUEST", "nom_ecole": "Ecole élémentaire Dauriac Sylvain" }, "geometry": { "type": "Point", "coordinates": [ 1.413942634281663, 43.578155506605775 ] } },
{ "type": "Feature", "properties": { "level_0": 19, "level_1": 0, "ecole": "Falcucci Clément", "niveau": "élémentaire", "codsti": 8388311, "index": 32, "codpos": 31100, "rne": "0312347H", "libelle": "IMP DU BACHAGA BOUALAM", "secteur_action_scolaire": "C. OUEST", "nom_ecole": "Ecole élémentaire Falcucci Clément" }, "geometry": { "type": "Point", "coordinates": [ 1.409182255213409, 43.579341320169128 ] } },
{ "type": "Feature", "properties": { "level_0": 20, "level_1": 0, "ecole": "Faucher Daniel", "niveau": "élémentaire", "codsti": 4604801, "index": 34, "codpos": 31100, "rne": "0311604A", "libelle": "CHEM ANDRE MESSAGER", "secteur_action_scolaire": "OUEST", "nom_ecole": "Ecole élémentaire Faucher Daniel" }, "geometry": { "type": "Point", "coordinates": [ 1.405362583364031, 43.572793082119297 ] } },
{ "type": "Feature", "properties": { "level_0": 21, "level_1": 0, "ecole": "Fontaine Bayonne", "niveau": "élémentaire", "codsti": 2425645, "index": 38, "codpos": 31300, "rne": "0311015K", "libelle": "RUE ALBUS", "secteur_action_scolaire": "C. OUEST", "nom_ecole": "Ecole élémentaire Fontaine Bayonne" }, "geometry": { "type": "Point", "coordinates": [ 1.416909865374099, 43.600778531470482 ] } },
{ "type": "Feature", "properties": { "level_0": 22, "level_1": 0, "ecole": "Gais Pinsons (Les)", "niveau": "élémentaire", "codsti": 3040022, "index": 41, "codpos": 31300, "rne": "0311601X", "libelle": "RUE DES GAIS PINSONS", "secteur_action_scolaire": "C. OUEST", "nom_ecole": "Ecole élémentaire Gais Pinsons (Les)" }, "geometry": { "type": "Point", "coordinates": [ 1.408858113798437, 43.604085743626669 ] } },
{ "type": "Feature", "properties": { "level_0": 23, "level_1": 0, "ecole": "Héritier Françoise", "niveau": "élémentaire", "codsti": 4604801, "index": 46, "codpos": 31100, "rne": "0311645V", "libelle": "CHEM ANDRE MESSAGER", "secteur_action_scolaire": "OUEST", "nom_ecole": "Ecole élémentaire Héritier Françoise" }, "geometry": { "type": "Point", "coordinates": [ 1.406215237660018, 43.572773113863619 ] } },
{ "type": "Feature", "properties": { "level_0": 24, "level_1": 0, "ecole": "Hyon Georges", "niveau": "élémentaire", "codsti": 8388311, "index": 48, "codpos": 31100, "rne": "0310987E", "libelle": "IMP DU BACHAGA BOUALAM", "secteur_action_scolaire": "C. OUEST", "nom_ecole": "Ecole élémentaire Hyon Georges" }, "geometry": { "type": "Point", "coordinates": [ 1.41035321992764, 43.579327322679489 ] } },
{ "type": "Feature", "properties": { "level_0": 25, "level_1": 0, "ecole": "Jacquier Maurice", "niveau": "élémentaire", "codsti": 5462433, "index": 49, "codpos": 31100, "rne": "0312324H", "libelle": "RUE DU POITOU", "secteur_action_scolaire": "C. OUEST", "nom_ecole": "Ecole élémentaire Jacquier Maurice" }, "geometry": { "type": "Point", "coordinates": [ 1.418074786091485, 43.575630376287897 ] } },
{ "type": "Feature", "properties": { "level_0": 26, "level_1": 0, "ecole": "Lalande", "niveau": "élémentaire", "codsti": 3001610, "index": 56, "codpos": 31200, "rne": "0310921H", "libelle": "AV DE FRONTON", "secteur_action_scolaire": "NORD", "nom_ecole": "Ecole élémentaire Lalande" }, "geometry": { "type": "Point", "coordinates": [ 1.432897233505673, 43.648223648421592 ] } },
{ "type": "Feature", "properties": { "level_0": 27, "level_1": 0, "ecole": "Lapujade", "niveau": "élémentaire", "codsti": 83241, "index": 57, "codpos": 31200, "rne": "0311089R", "libelle": "RTE D ALBI", "secteur_action_scolaire": "NORD", "nom_ecole": "Ecole élémentaire Lapujade" }, "geometry": { "type": "Point", "coordinates": [ 1.460642504473118, 43.628629659107816 ] } },
{ "type": "Feature", "properties": { "level_0": 28, "level_1": 0, "ecole": "Littre", "niveau": "élémentaire", "codsti": 825627, "index": 62, "codpos": 31300, "rne": "0312155Z", "libelle": "PL BERTIER", "secteur_action_scolaire": "OUEST", "nom_ecole": "Ecole élémentaire Littre" }, "geometry": { "type": "Point", "coordinates": [ 1.377568118017214, 43.608146049560325 ] } },
{ "type": "Feature", "properties": { "level_0": 29, "level_1": 0, "ecole": "Michoun", "niveau": "élémentaire", "codsti": 4627236, "index": 68, "codpos": 31500, "rne": "0312276F", "libelle": "CHE MICHOUN", "secteur_action_scolaire": "C. EST", "nom_ecole": "Ecole élémentaire Michoun" }, "geometry": { "type": "Point", "coordinates": [ 1.468211297704148, 43.626728968817517 ] } },
{ "type": "Feature", "properties": { "level_0": 30, "level_1": 0, "ecole": "Molière", "niveau": "élémentaire", "codsti": 6304027, "index": 69, "codpos": 31300, "rne": "0312078R", "libelle": "RUE SAINTE LUCIE", "secteur_action_scolaire": "C. OUEST", "nom_ecole": "Ecole élémentaire Molière" }, "geometry": { "type": "Point", "coordinates": [ 1.430862434518407, 43.59343121283073 ] } },
{ "type": "Feature", "properties": { "level_0": 31, "level_1": 0, "ecole": "Monge", "niveau": "élémentaire", "codsti": 6678454, "index": 70, "codpos": 31500, "rne": "0311569M", "libelle": "RUE SOULT", "secteur_action_scolaire": "C. EST", "nom_ecole": "Ecole élémentaire Monge" }, "geometry": { "type": "Point", "coordinates": [ 1.457741576686656, 43.608837406206959 ] } },
{ "type": "Feature", "properties": { "level_0": 32, "level_1": 0, "ecole": "Nougaro", "niveau": "élémentaire", "codsti": 3148820, "index": 75, "codpos": 31200, "rne": "0310917D", "libelle": "RUE DU GENERAL BOURBAKI", "secteur_action_scolaire": "NORD", "nom_ecole": "Ecole élémentaire Nougaro" }, "geometry": { "type": "Point", "coordinates": [ 1.434282551824928, 43.620552867419853 ] } },
{ "type": "Feature", "properties": { "level_0": 33, "level_1": 0, "ecole": "Pagnol Marcel", "niveau": "élémentaire", "codsti": 8343553, "index": 77, "codpos": 31300, "rne": "0311016L", "libelle": "RUE ERNEST DUFER", "secteur_action_scolaire": "C. OUEST", "nom_ecole": "Ecole élémentaire Pagnol Marcel" }, "geometry": { "type": "Point", "coordinates": [ 1.40124665939134, 43.597105056987388 ] } },
{ "type": "Feature", "properties": { "level_0": 34, "level_1": 0, "ecole": "Papus", "niveau": "élémentaire", "codsti": 3392004, "index": 78, "codpos": 31100, "rne": "0312542V", "libelle": "ALL DE GUYENNE", "secteur_action_scolaire": "C. OUEST", "nom_ecole": "Ecole élémentaire Papus" }, "geometry": { "type": "Point", "coordinates": [ 1.413244980496751, 43.575710257001511 ] } },
{ "type": "Feature", "properties": { "level_0": 35, "level_1": 0, "ecole": "Ponts Jumeaux", "niveau": "élémentaire", "codsti": 2176044, "index": 81, "codpos": 31200, "rne": "0312852Ge", "libelle": "RUE DAYDE", "secteur_action_scolaire": "NORD", "nom_ecole": "Ecole élémentaire Ponts Jumeaux" }, "geometry": { "type": "Point", "coordinates": [ 1.422375623052344, 43.615165560428977 ] } },
{ "type": "Feature", "properties": { "level_0": 36, "level_1": 0, "ecole": "Terrasse (La)", "niveau": "élémentaire", "codsti": 8345410, "index": 91, "codpos": 31500, "rne": "0311745D", "libelle": "IMPASSE TRUTAT", "secteur_action_scolaire": "SUD EST", "nom_ecole": "Ecole élémentaire Terrasse (La)" }, "geometry": { "type": "Point", "coordinates": [ 1.485436587088147, 43.583899473014057 ] } },
{ "type": "Feature", "properties": { "level_0": 37, "level_1": 0, "ecole": "Calvinhac", "niveau": "élémentaire", "codsti": 3724846, "index": 14, "codpos": 31000, "rne": "0312226B", "libelle": "RUE JACQUES LABATUT", "secteur_action_scolaire": "C. EST", "nom_ecole": "Ecole élémentaire Calvinhac" }, "geometry": { "type": "Point", "coordinates": [ 1.45498952436648, 43.598022033870741 ] } },
{ "type": "Feature", "properties": { "level_0": 38, "level_1": 0, "ecole": "Chaubet Jean", "niveau": "élémentaire", "codsti": 5651228, "index": 18, "codpos": 31500, "rne": "0310928R", "libelle": "AV CAMILLE PUJOL", "secteur_action_scolaire": "C. EST", "nom_ecole": "Ecole élémentaire Chaubet Jean" }, "geometry": { "type": "Point", "coordinates": [ 1.467419856955276, 43.600599380496234 ] } },
{ "type": "Feature", "properties": { "level_0": 39, "level_1": 0, "ecole": "Courrège", "niveau": "élémentaire", "codsti": 6188842, "index": 19, "codpos": 31400, "rne": "0312176X", "libelle": "AV SAINT EXUPERY", "secteur_action_scolaire": "SUD EST", "nom_ecole": "Ecole élémentaire Courrège" }, "geometry": { "type": "Point", "coordinates": [ 1.47601297884932, 43.582080341303971 ] } },
{ "type": "Feature", "properties": { "level_0": 40, "level_1": 0, "ecole": "Curie Marie & Pierre", "niveau": "élémentaire", "codsti": 4355200, "index": 20, "codpos": 31200, "rne": "0312427V", "libelle": "RUE BAPTISTE MARCET", "secteur_action_scolaire": "NORD", "nom_ecole": "Ecole élémentaire Curie Marie & Pierre" }, "geometry": { "type": "Point", "coordinates": [ 1.443369104769917, 43.620645171455187 ] } },
{ "type": "Feature", "properties": { "level_0": 41, "level_1": 0, "ecole": "Dupont Pierre", "niveau": "élémentaire", "codsti": 6332818, "index": 29, "codpos": 31400, "rne": "0310161G", "libelle": "GRANDE-RUE SAINT MICHEL", "secteur_action_scolaire": "SUD EST", "nom_ecole": "Ecole élémentaire Dupont Pierre" }, "geometry": { "type": "Point", "coordinates": [ 1.445830280690475, 43.58926924085349 ] } },
{ "type": "Feature", "properties": { "level_0": 42, "level_1": 0, "ecole": "Ferry Jules", "niveau": "élémentaire", "codsti": 3001610, "index": 36, "codpos": 31200, "rne": "0312110A", "libelle": "AV DE FRONTON", "secteur_action_scolaire": "NORD", "nom_ecole": "Ecole élémentaire Ferry Jules" }, "geometry": { "type": "Point", "coordinates": [ 1.433361671403053, 43.632964778135175 ] } },
{ "type": "Feature", "properties": { "level_0": 43, "level_1": 0, "ecole": "Fleurance", "niveau": "élémentaire", "codsti": 6915241, "index": 37, "codpos": 31300, "rne": "0312680V", "libelle": "RUE ANNE JOSEPHE THEROIGNE \r\nDE MERICOUR", "secteur_action_scolaire": "OUEST", "nom_ecole": "Ecole élémentaire Fleurance" }, "geometry": { "type": "Point", "coordinates": [ 1.370685338931232, 43.598873582281144 ] } },
{ "type": "Feature", "properties": { "level_0": 44, "level_1": 0, "ecole": "France Anatole", "niveau": "élémentaire", "codsti": 4556809, "index": 40, "codpos": 31400, "rne": "0312152W", "libelle": "BD DE LA MEDITERRANEE", "secteur_action_scolaire": "SUD EST", "nom_ecole": "Ecole élémentaire France Anatole" }, "geometry": { "type": "Point", "coordinates": [ 1.461798172832453, 43.584822534769749 ] } },
{ "type": "Feature", "properties": { "level_0": 45, "level_1": 0, "ecole": "Guillaumet Henri", "niveau": "élémentaire", "codsti": 899227, "index": 45, "codpos": 31400, "rne": "0312153X", "libelle": "CHE DE BITET", "secteur_action_scolaire": "SUD EST", "nom_ecole": "Ecole élémentaire Guillaumet Henri" }, "geometry": { "type": "Point", "coordinates": [ 1.488649762690443, 43.5772548770016 ] } },
{ "type": "Feature", "properties": { "level_0": 46, "level_1": 0, "ecole": "Lardenne", "niveau": "élémentaire", "codsti": 5958452, "index": 58, "codpos": 31100, "rne": "0312293Z", "libelle": "CHE DE ROCAMADOUR", "secteur_action_scolaire": "OUEST", "nom_ecole": "Ecole élémentaire Lardenne" }, "geometry": { "type": "Point", "coordinates": [ 1.378130588746774, 43.588740814310206 ] } },
{ "type": "Feature", "properties": { "level_0": 47, "level_1": 0, "ecole": "Leygue Armand", "niveau": "élémentaire", "codsti": 1484833, "index": 61, "codpos": 31500, "rne": "0311010E", "libelle": "CHE DU COIN DE LA MOURE", "secteur_action_scolaire": "C. EST", "nom_ecole": "Ecole élémentaire Leygue Armand" }, "geometry": { "type": "Point", "coordinates": [ 1.463477368153292, 43.59684559705719 ] } },
{ "type": "Feature", "properties": { "level_0": 48, "level_1": 0, "ecole": "Musset Alfred De", "niveau": "élémentaire", "codsti": 3161624, "index": 72, "codpos": 31200, "rne": "0312151V", "libelle": "RUE DU GENERAL HOCHE", "secteur_action_scolaire": "NORD", "nom_ecole": "Ecole élémentaire Musset Alfred De" }, "geometry": { "type": "Point", "coordinates": [ 1.430147897540749, 43.623199255869473 ] } },
{ "type": "Feature", "properties": { "level_0": 49, "level_1": 0, "ecole": "Pastel (Le)", "niveau": "élémentaire", "codsti": 2604809, "index": 79, "codpos": 31400, "rne": "0311641R", "libelle": "CHE D ESCALLES", "secteur_action_scolaire": "SUD EST", "nom_ecole": "Ecole élémentaire Pastel (Le)" }, "geometry": { "type": "Point", "coordinates": [ 1.453541498573324, 43.54532290334199 ] } },
{ "type": "Feature", "properties": { "level_0": 50, "level_1": 0, "ecole": "Renan Ernest", "niveau": "élémentaire", "codsti": 364857, "index": 83, "codpos": 31200, "rne": "0312178Z", "libelle": "CHE D AUDIBERT", "secteur_action_scolaire": "NORD", "nom_ecole": "Ecole élémentaire Renan Ernest" }, "geometry": { "type": "Point", "coordinates": [ 1.441531364928577, 43.636649639707336 ] } },
{ "type": "Feature", "properties": { "level_0": 51, "level_1": 0, "ecole": "Ricardie", "niveau": "élémentaire", "codsti": 7036843, "index": 84, "codpos": 31400, "rne": "0310160F", "libelle": "AV DE L URSS", "secteur_action_scolaire": "SUD EST", "nom_ecole": "Ecole élémentaire Ricardie" }, "geometry": { "type": "Point", "coordinates": [ 1.449413159467609, 43.580932174659637 ] } },
{ "type": "Feature", "properties": { "level_0": 52, "level_1": 0, "ecole": "Tillion Germaine", "niveau": "élémentaire", "codsti": 9000400, "index": 93, "codpos": 31100, "rne": "0312943Fe", "libelle": "RUE CESARIA EVORA", "secteur_action_scolaire": "OUEST", "nom_ecole": "Ecole élémentaire Tillion Germaine" }, "geometry": { "type": "Point", "coordinates": [ 1.391930789680408, 43.584181289210292 ] } },
{ "type": "Feature", "properties": { "level_0": 53, "level_1": 0, "ecole": "Vernant", "niveau": "élémentaire", "codsti": 9000118, "index": 97, "codpos": 31400, "rne": "0312769S", "libelle": "RUE RENE GOSCINNY", "secteur_action_scolaire": "SUD EST", "nom_ecole": "Ecole élémentaire Vernant" }, "geometry": { "type": "Point", "coordinates": [ 1.457736923952168, 43.550418744723508 ] } },
{ "type": "Feature", "properties": { "level_0": 54, "level_1": 0, "ecole": "Viollet-le-Duc", "niveau": "élémentaire", "codsti": 8376619, "index": 98, "codpos": 31100, "rne": "0312108Y", "libelle": "RUE EUGENE VIOLLET LE DUC", "secteur_action_scolaire": "OUEST", "nom_ecole": "Ecole élémentaire Viollet-le-Duc" }, "geometry": { "type": "Point", "coordinates": [ 1.391952570126055, 43.581350929105618 ] } },
{ "type": "Feature", "properties": { "level_0": 55, "level_1": 0, "ecole": "Zay Jean", "niveau": "élémentaire", "codsti": 8445740, "index": 99, "codpos": 31200, "rne": "0312792Se", "libelle": "RUE DURAND", "secteur_action_scolaire": "NORD", "nom_ecole": "Ecole élémentaire Zay Jean" }, "geometry": { "type": "Point", "coordinates": [ 1.447114282933722, 43.643588615817599 ] } },
{ "type": "Feature", "properties": { "level_0": 56, "level_1": 0, "ecole": "Benezet", "niveau": "élémentaire", "codsti": 771228, "index": 6, "codpos": 31300, "rne": "0310162H", "libelle": "RUE BENEZET", "secteur_action_scolaire": "C. OUEST", "nom_ecole": "Ecole élémentaire Benezet" }, "geometry": { "type": "Point", "coordinates": [ 1.427371572953566, 43.589500389093139 ] } },
{ "type": "Feature", "properties": { "level_0": 57, "level_1": 0, "ecole": "Billières Etienne", "niveau": "élémentaire", "codsti": 3056060, "index": 8, "codpos": 31100, "rne": "0312272B", "libelle": "RUE JACQUES GAMELIN", "secteur_action_scolaire": "C. OUEST", "nom_ecole": "Ecole élémentaire Billières Etienne" }, "geometry": { "type": "Point", "coordinates": [ 1.420903146094662, 43.588146350639299 ] } },
{ "type": "Feature", "properties": { "level_0": 58, "level_1": 0, "ecole": "Château de l'Hers", "niveau": "élémentaire", "codsti": 8425213, "index": 17, "codpos": 31500, "rne": "0312598F", "libelle": "RUE CLAUDIUS ROUGENET", "secteur_action_scolaire": "C. EST", "nom_ecole": "Ecole élémentaire Château de l'Hers" }, "geometry": { "type": "Point", "coordinates": [ 1.485383645981417, 43.600667239802526 ] } },
{ "type": "Feature", "properties": { "level_0": 59, "level_1": 0, "ecole": "De Gouges Olympe", "niveau": "élémentaire", "codsti": 9000113, "index": 26, "codpos": 31200, "rne": "0312722Re", "libelle": "RUE VIRGINIA WOOLF", "secteur_action_scolaire": "NORD", "nom_ecole": "Ecole élémentaire De Gouges Olympe" }, "geometry": { "type": "Point", "coordinates": [ 1.439761499442563, 43.654164985706458 ] } },
{ "type": "Feature", "properties": { "level_0": 60, "level_1": 0, "ecole": "Dottin Paul", "niveau": "élémentaire", "codsti": 8346726, "index": 28, "codpos": 31100, "rne": "0311305A", "libelle": "RUE DU RECTEUR DOTTIN", "secteur_action_scolaire": "OUEST", "nom_ecole": "Ecole élémentaire Dottin Paul" }, "geometry": { "type": "Point", "coordinates": [ 1.399135226687609, 43.560583890104397 ] } },
{ "type": "Feature", "properties": { "level_0": 61, "level_1": 0, "ecole": "Guilhermy", "niveau": "élémentaire", "codsti": 8432120, "index": 44, "codpos": 31100, "rne": "0312870Be", "libelle": "RUE DE LAS BRUGUES", "secteur_action_scolaire": "OUEST", "nom_ecole": "Ecole élémentaire Guilhermy" }, "geometry": { "type": "Point", "coordinates": [ 1.372182901498191, 43.567268546525028 ] } },
{ "type": "Feature", "properties": { "level_0": 62, "level_1": 0, "ecole": "Jaurès Jean", "niveau": "élémentaire", "codsti": 2992030, "index": 50, "codpos": 31400, "rne": "0312294A", "libelle": "AV FRIZAC", "secteur_action_scolaire": "SUD EST", "nom_ecole": "Ecole élémentaire Jaurès Jean" }, "geometry": { "type": "Point", "coordinates": [ 1.451389037926785, 43.589069201223957 ] } },
{ "type": "Feature", "properties": { "level_0": 63, "level_1": 0, "ecole": "Jolimont", "niveau": "élémentaire", "codsti": 3372803, "index": 51, "codpos": 31500, "rne": "0312173U", "libelle": "AV HENRI GUILLAUMET", "secteur_action_scolaire": "C. EST", "nom_ecole": "Ecole élémentaire Jolimont" }, "geometry": { "type": "Point", "coordinates": [ 1.467802769909187, 43.613845253361958 ] } },
{ "type": "Feature", "properties": { "level_0": 64, "level_1": 0, "ecole": "Juncasse (La)", "niveau": "élémentaire", "codsti": 5433652, "index": 53, "codpos": 31500, "rne": "0312156A", "libelle": "RUE LOUIS PLANA", "secteur_action_scolaire": "C. EST", "nom_ecole": "Ecole élémentaire Juncasse (La)" }, "geometry": { "type": "Point", "coordinates": [ 1.471681445312581, 43.617470262785432 ] } },
{ "type": "Feature", "properties": { "level_0": 65, "level_1": 0, "ecole": "Lespinasse", "niveau": "élémentaire", "codsti": 1596855, "index": 59, "codpos": 31300, "rne": "0311021S", "libelle": "RUE DU CHAIREDON", "secteur_action_scolaire": "C. OUEST", "nom_ecole": "Ecole élémentaire Lespinasse" }, "geometry": { "type": "Point", "coordinates": [ 1.434868155508791, 43.597676774352841 ] } },
{ "type": "Feature", "properties": { "level_0": 66, "level_1": 0, "ecole": "Mailhos Georges", "niveau": "élémentaire", "codsti": 8441700, "index": 64, "codpos": 31400, "rne": "0312975Re", "libelle": "RUE CLAIRE ROMAN", "secteur_action_scolaire": "SUD EST", "nom_ecole": "Ecole élémentaire Mailhos Georges" }, "geometry": { "type": "Point", "coordinates": [ 1.497350638134852, 43.566881796880487 ] } },
{ "type": "Feature", "properties": { "level_0": 67, "level_1": 0, "ecole": "Maourine (La)", "niveau": "élémentaire", "codsti": 8439231, "index": 65, "codpos": 31100, "rne": "0312673M", "libelle": "AV M BOURGES MAUNOURY", "secteur_action_scolaire": "NORD", "nom_ecole": "Ecole élémentaire Maourine (La)" }, "geometry": { "type": "Point", "coordinates": [ 1.449192003737622, 43.629999985393219 ] } },
{ "type": "Feature", "properties": { "level_0": 68, "level_1": 0, "ecole": "Niboul", "niveau": "élémentaire", "codsti": 9000173, "index": 73, "codpos": 31200, "rne": "0312871Ce", "libelle": "RUE ARRIA LY", "secteur_action_scolaire": "NORD", "nom_ecole": "Ecole élémentaire Niboul" }, "geometry": { "type": "Point", "coordinates": [ 1.450201873819664, 43.640010461185092 ] } },
{ "type": "Feature", "properties": { "level_0": 69, "level_1": 0, "ecole": "Nord", "niveau": "élémentaire", "codsti": 233624, "index": 74, "codpos": 31000, "rne": "0310952S", "libelle": "BD D ARCOLE", "secteur_action_scolaire": "C. EST", "nom_ecole": "Ecole élémentaire Nord" }, "geometry": { "type": "Point", "coordinates": [ 1.441569178717667, 43.61083050154388 ] } },
{ "type": "Feature", "properties": { "level_0": 70, "level_1": 0, "ecole": "Patte d'Oie", "niveau": "élémentaire", "codsti": 6793649, "index": 80, "codpos": 31300, "rne": "0312197V", "libelle": "RUE DU TCHAD", "secteur_action_scolaire": "C. OUEST", "nom_ecole": "Ecole élémentaire Patte d'Oie" }, "geometry": { "type": "Point", "coordinates": [ 1.424429908728688, 43.595476191924547 ] } },
{ "type": "Feature", "properties": { "level_0": 71, "level_1": 0, "ecole": "Ronsard", "niveau": "élémentaire", "codsti": 7209600, "index": 85, "codpos": 31100, "rne": "0310988F", "libelle": "RUE VESTREPAIN", "secteur_action_scolaire": "C. OUEST", "nom_ecole": "Ecole élémentaire Ronsard" }, "geometry": { "type": "Point", "coordinates": [ 1.407549606791631, 43.584323586781139 ] } },
{ "type": "Feature", "properties": { "level_0": 72, "level_1": 0, "ecole": "Sauzelong", "niveau": "élémentaire", "codsti": 704025, "index": 87, "codpos": 31400, "rne": "0311006A", "libelle": "AV ALBERT BEDOUCE", "secteur_action_scolaire": "SUD EST", "nom_ecole": "Ecole élémentaire Sauzelong" }, "geometry": { "type": "Point", "coordinates": [ 1.461833186485291, 43.58099905905155 ] } },
{ "type": "Feature", "properties": { "level_0": 73, "level_1": 0, "ecole": "Sermet", "niveau": "élémentaire", "codsti": 6790415, "index": 89, "codpos": 31000, "rne": "0310950P", "libelle": "RUE DU TAUR", "secteur_action_scolaire": "C. EST", "nom_ecole": "Ecole élémentaire Sermet" }, "geometry": { "type": "Point", "coordinates": [ 1.442107933145435, 43.60718317420983 ] } },
{ "type": "Feature", "properties": { "level_0": 74, "level_1": 0, "ecole": "Tibaous (Les)", "niveau": "élémentaire", "codsti": 8454055, "index": 92, "codpos": 31100, "rne": "0312679U", "libelle": "RUE ALBERT CAROVIS", "secteur_action_scolaire": "OUEST", "nom_ecole": "Ecole élémentaire Tibaous (Les)" }, "geometry": { "type": "Point", "coordinates": [ 1.385035188271436, 43.550311246802266 ] } },
{ "type": "Feature", "properties": { "level_0": 75, "level_1": 0, "ecole": "Vergers (Les)", "niveau": "élémentaire", "codsti": 8361142, "index": 96, "codpos": 31100, "rne": "0312028L", "libelle": "IMP DES VERGERS", "secteur_action_scolaire": "OUEST", "nom_ecole": "Ecole élémentaire Vergers (Les)" }, "geometry": { "type": "Point", "coordinates": [ 1.398487333943913, 43.581286932992626 ] } },
{ "type": "Feature", "properties": { "level_0": 76, "level_1": 0, "ecole": "Aubrac Lucie", "niveau": "élémentaire", "codsti": 3001610, "index": 2, "codpos": 31200, "rne": "0312750We", "libelle": "AV DE FRONTON", "secteur_action_scolaire": "NORD", "nom_ecole": "Ecole élémentaire Aubrac Lucie" }, "geometry": { "type": "Point", "coordinates": [ 1.433864914863379, 43.629713759023339 ] } },
{ "type": "Feature", "properties": { "level_0": 77, "level_1": 0, "ecole": "Bastide Georges", "niveau": "élémentaire", "codsti": 8346726, "index": 3, "codpos": 31100, "rne": "0312334U", "libelle": "RUE DU RECTEUR DOTTIN", "secteur_action_scolaire": "OUEST", "nom_ecole": "Ecole élémentaire Bastide Georges" }, "geometry": { "type": "Point", "coordinates": [ 1.3982910586497, 43.560144924999804 ] } },
{ "type": "Feature", "properties": { "level_0": 78, "level_1": 0, "ecole": "Bayard / Matabiau", "niveau": "élémentaire", "codsti": 4492840, "index": 4, "codpos": 31000, "rne": "0310993L", "libelle": "RUE MATABIAU", "secteur_action_scolaire": "C. EST", "nom_ecole": "Ecole élémentaire Bayard / Matabiau" }, "geometry": { "type": "Point", "coordinates": [ 1.447874234891523, 43.611455868992536 ] } },
{ "type": "Feature", "properties": { "level_0": 79, "level_1": 0, "ecole": "Borderouge", "niveau": "élémentaire", "codsti": 8452239, "index": 11, "codpos": 31200, "rne": "0312707Z", "libelle": "RUE ANTOINE PASTRE", "secteur_action_scolaire": "NORD", "nom_ecole": "Ecole élémentaire Borderouge" }, "geometry": { "type": "Point", "coordinates": [ 1.4546720113497, 43.641378742148852 ] } },
{ "type": "Feature", "properties": { "level_0": 80, "level_1": 0, "ecole": "Bourliaguet Léonce", "niveau": "élémentaire", "codsti": 8358112, "index": 12, "codpos": 31100, "rne": "0311961N", "libelle": "RUE ARISTIDE MAILLOL", "secteur_action_scolaire": "OUEST", "nom_ecole": "Ecole élémentaire Bourliaguet Léonce" }, "geometry": { "type": "Point", "coordinates": [ 1.395521463840501, 43.577457974776948 ] } },
{ "type": "Feature", "properties": { "level_0": 81, "level_1": 0, "ecole": "Buffon", "niveau": "élémentaire", "codsti": 8395014, "index": 13, "codpos": 31100, "rne": "0312227C", "libelle": "IMP DES GLIERES", "secteur_action_scolaire": "OUEST", "nom_ecole": "Ecole élémentaire Buffon" }, "geometry": { "type": "Point", "coordinates": [ 1.411880036677417, 43.564715898901234 ] } },
{ "type": "Feature", "properties": { "level_0": 82, "level_1": 0, "ecole": "Cuvier", "niveau": "élémentaire", "codsti": 83241, "index": 21, "codpos": 31200, "rne": "0310970L", "libelle": "RTE D ALBI", "secteur_action_scolaire": "NORD", "nom_ecole": "Ecole élémentaire Cuvier" }, "geometry": { "type": "Point", "coordinates": [ 1.463909750331867, 43.63663831098323 ] } },
{ "type": "Feature", "properties": { "level_0": 83, "level_1": 0, "ecole": "Daste André", "niveau": "élémentaire", "codsti": 3945656, "index": 22, "codpos": 31400, "rne": "0312079S", "libelle": "AV DE LATTRE DE TASSIGNY", "secteur_action_scolaire": "SUD EST", "nom_ecole": "Ecole élémentaire Daste André" }, "geometry": { "type": "Point", "coordinates": [ 1.438245588532522, 43.580861039698412 ] } },
{ "type": "Feature", "properties": { "level_0": 84, "level_1": 0, "ecole": "Daurat Didier", "niveau": "élémentaire", "codsti": 3198424, "index": 23, "codpos": 31100, "rne": "0311693X", "libelle": "RUE JEAN GILLES", "secteur_action_scolaire": "OUEST", "nom_ecole": "Ecole élémentaire Daurat Didier" }, "geometry": { "type": "Point", "coordinates": [ 1.402424706396401, 43.573573525468724 ] } },
{ "type": "Feature", "properties": { "level_0": 85, "level_1": 0, "ecole": "De Gaulle-Anthonioz", "niveau": "élémentaire", "codsti": 9000375, "index": 25, "codpos": 31300, "rne": "0312921Ge", "libelle": "RUE MARIE DE GOURNAY", "secteur_action_scolaire": "C. OUEST", "nom_ecole": "Ecole élémentaire De Gaulle-Anthonioz" }, "geometry": { "type": "Point", "coordinates": [ 1.405592163711675, 43.600979059483052 ] } },
{ "type": "Feature", "properties": { "level_0": 86, "level_1": 0, "ecole": "Dupouy Gaston", "niveau": "élémentaire", "codsti": 8410654, "index": 30, "codpos": 31100, "rne": "0312320D", "libelle": "RUE DU PR GASTON DUPOUY", "secteur_action_scolaire": "OUEST", "nom_ecole": "Ecole élémentaire Dupouy Gaston" }, "geometry": { "type": "Point", "coordinates": [ 1.380818574675497, 43.580974521871838 ] } },
{ "type": "Feature", "properties": { "level_0": 87, "level_1": 0, "ecole": "Fabre", "niveau": "élémentaire", "codsti": 6374403, "index": 31, "codpos": 31000, "rne": "0311880A", "libelle": "RUE SAINT REMESY", "secteur_action_scolaire": "C. EST", "nom_ecole": "Ecole élémentaire Fabre" }, "geometry": { "type": "Point", "coordinates": [ 1.443661332446935, 43.596082720571275 ] } },
{ "type": "Feature", "properties": { "level_0": 88, "level_1": 0, "ecole": "Fénelon", "niveau": "élémentaire", "codsti": 2739205, "index": 35, "codpos": 31200, "rne": "0313046Te", "libelle": "RUE FÉNELON", "secteur_action_scolaire": "NORD", "nom_ecole": "Ecole élémentaire Fénelon" }, "geometry": { "type": "Point", "coordinates": [ 1.453270152340353, 43.649558393130292 ] } },
{ "type": "Feature", "properties": { "level_0": 89, "level_1": 0, "ecole": "Fourtanier Alexandre", "niveau": "élémentaire", "codsti": 5824046, "index": 39, "codpos": 31000, "rne": "0311008C", "libelle": "RUE DU REMPART ST ETIENNE", "secteur_action_scolaire": "C. EST", "nom_ecole": "Ecole élémentaire Fourtanier Alexandre" }, "geometry": { "type": "Point", "coordinates": [ 1.450691517699377, 43.603086387019566 ] } },
{ "type": "Feature", "properties": { "level_0": 90, "level_1": 0, "ecole": "Godolin Peire", "niveau": "élémentaire", "codsti": 8408124, "index": 42, "codpos": 31300, "rne": "0311782U", "libelle": "RUE VINCENT SCOTTO", "secteur_action_scolaire": "C. OUEST", "nom_ecole": "Ecole élémentaire Godolin Peire" }, "geometry": { "type": "Point", "coordinates": [ 1.416505699154057, 43.598178948144074 ] } },
{ "type": "Feature", "properties": { "level_0": 91, "level_1": 0, "ecole": "Grand Selve", "niveau": "élémentaire", "codsti": 3308834, "index": 43, "codpos": 31200, "rne": "0310975S", "libelle": "ALLÉE DE GRAND SELVE", "secteur_action_scolaire": "NORD", "nom_ecole": "Ecole élémentaire Grand Selve" }, "geometry": { "type": "Point", "coordinates": [ 1.45028866824409, 43.649329309557544 ] } },
{ "type": "Feature", "properties": { "level_0": 92, "level_1": 0, "ecole": "Lagrange Léo", "niveau": "élémentaire", "codsti": 6572839, "index": 54, "codpos": 31400, "rne": "0310960A", "libelle": "RUE HENRI SELLIER", "secteur_action_scolaire": "SUD EST", "nom_ecole": "Ecole élémentaire Lagrange Léo" }, "geometry": { "type": "Point", "coordinates": [ 1.43696790184279, 43.577278795810365 ] } },
{ "type": "Feature", "properties": { "level_0": 93, "level_1": 0, "ecole": "Lakanal", "niveau": "élémentaire", "codsti": 2169647, "index": 55, "codpos": 31000, "rne": "0312292Y", "libelle": "PL DE LA DAURADE", "secteur_action_scolaire": "C. EST", "nom_ecole": "Ecole élémentaire Lakanal" }, "geometry": { "type": "Point", "coordinates": [ 1.438941952046282, 43.602072181655707 ] } },
{ "type": "Feature", "properties": { "level_0": 94, "level_1": 0, "ecole": "Marengo-Périole", "niveau": "élémentaire", "codsti": 5315223, "index": 66, "codpos": 31500, "rne": "0310934X", "libelle": "RUE DE PERIOLE", "secteur_action_scolaire": "C. EST", "nom_ecole": "Ecole élémentaire Marengo-Périole" }, "geometry": { "type": "Point", "coordinates": [ 1.459675448284077, 43.617554809520577 ] } },
{ "type": "Feature", "properties": { "level_0": 95, "level_1": 0, "ecole": "Michelet", "niveau": "élémentaire", "codsti": 4624002, "index": 67, "codpos": 31000, "rne": "0312077P", "libelle": "BD MICHELET", "secteur_action_scolaire": "C. EST", "nom_ecole": "Ecole élémentaire Michelet" }, "geometry": { "type": "Point", "coordinates": [ 1.455926774126704, 43.603206536089957 ] } },
{ "type": "Feature", "properties": { "level_0": 96, "level_1": 0, "ecole": "Montaudran", "niveau": "élémentaire", "codsti": 8356908, "index": 71, "codpos": 31400, "rne": "0311923X", "libelle": "IMP GASTON GENIN", "secteur_action_scolaire": "SUD EST", "nom_ecole": "Ecole élémentaire Montaudran" }, "geometry": { "type": "Point", "coordinates": [ 1.484608156461926, 43.57398647681282 ] } },
{ "type": "Feature", "properties": { "level_0": 97, "level_1": 0, "ecole": "Rangueil", "niveau": "élémentaire", "codsti": 2896046, "index": 82, "codpos": 31400, "rne": "0312177Y", "libelle": "RUE CLAUDE DE FORBIN", "secteur_action_scolaire": "SUD EST", "nom_ecole": "Ecole élémentaire Rangueil" }, "geometry": { "type": "Point", "coordinates": [ 1.46414732194384, 43.574883142207348 ] } },
{ "type": "Feature", "properties": { "level_0": 98, "level_1": 0, "ecole": "Veil Simone", "niveau": "élémentaire", "codsti": 4067248, "index": 95, "codpos": 31100, "rne": "0312323G", "libelle": "CHEMINEMENT ROBERT CAMBERT", "secteur_action_scolaire": "OUEST", "nom_ecole": "Ecole élémentaire Veil Simone" }, "geometry": { "type": "Point", "coordinates": [ 1.402669854061623, 43.568305163770056 ] } },
{ "type": "Feature", "properties": { "level_0": 0, "level_1": 0, "ecole": "Aubrac Lucie", "niveau": "maternelle", "codsti": 3955226, "index": 2, "codpos": 31200, "rne": "0312750Wm", "libelle": "ROUTE DE LAUNAGUET", "secteur_action_scolaire": "NORD", "nom_ecole": "Ecole maternelle Aubrac Lucie" }, "geometry": { "type": "Point", "coordinates": [ 1.437289911688711, 43.62875867889025 ] } },
{ "type": "Feature", "properties": { "level_0": 1, "level_1": 0, "ecole": "Bert Paul", "niveau": "maternelle", "codsti": 4112006, "index": 7, "codpos": 31100, "rne": "0310242V", "libelle": "CHE DE LIFFARD", "secteur_action_scolaire": "OUEST", "nom_ecole": "Ecole maternelle Bert Paul" }, "geometry": { "type": "Point", "coordinates": [ 1.378266485298608, 43.559661604144829 ] } },
{ "type": "Feature", "properties": { "level_0": 2, "level_1": 0, "ecole": "Billières Etienne", "niveau": "maternelle", "codsti": 2259224, "index": 8, "codpos": 31100, "rne": "0310208H", "libelle": "RUE HENRI DESBALS", "secteur_action_scolaire": "C. OUEST", "nom_ecole": "Ecole maternelle Billières Etienne" }, "geometry": { "type": "Point", "coordinates": [ 1.419235554335228, 43.589167520753755 ] } },
{ "type": "Feature", "properties": { "level_0": 3, "level_1": 0, "ecole": "Château de l'Hers", "niveau": "maternelle", "codsti": 8425213, "index": 16, "codpos": 31500, "rne": "0310195U", "libelle": "RUE CLAUDIUS ROUGENET", "secteur_action_scolaire": "C. EST", "nom_ecole": "Ecole maternelle Château de l'Hers" }, "geometry": { "type": "Point", "coordinates": [ 1.485383645981417, 43.600667239802526 ] } },
{ "type": "Feature", "properties": { "level_0": 4, "level_1": 0, "ecole": "Daurat Didier", "niveau": "maternelle", "codsti": 3198424, "index": 23, "codpos": 31100, "rne": "0311662N", "libelle": "RUE JEAN GILLES", "secteur_action_scolaire": "OUEST", "nom_ecole": "Ecole maternelle Daurat Didier" }, "geometry": { "type": "Point", "coordinates": [ 1.402548869137942, 43.573569975818529 ] } },
{ "type": "Feature", "properties": { "level_0": 5, "level_1": 0, "ecole": "Dauriac Sylvain", "niveau": "maternelle", "codsti": 3824054, "index": 24, "codpos": 31100, "rne": "0311123C", "libelle": "RUE PAUL LAMBERT", "secteur_action_scolaire": "C. OUEST", "nom_ecole": "Ecole maternelle Dauriac Sylvain" }, "geometry": { "type": "Point", "coordinates": [ 1.41357705802244, 43.578256627146288 ] } },
{ "type": "Feature", "properties": { "level_0": 6, "level_1": 0, "ecole": "De Gaulle-Anthonioz", "niveau": "maternelle", "codsti": 9000375, "index": 25, "codpos": 31300, "rne": "0312921Gm", "libelle": "RUE MARIE DE GOURNAY", "secteur_action_scolaire": "C. OUEST", "nom_ecole": "Ecole maternelle De Gaulle-Anthonioz" }, "geometry": { "type": "Point", "coordinates": [ 1.406358842538035, 43.600950606985137 ] } },
{ "type": "Feature", "properties": { "level_0": 7, "level_1": 0, "ecole": "De Gouges Olympe", "niveau": "maternelle", "codsti": 9000113, "index": 26, "codpos": 31200, "rne": "0312722Rm", "libelle": "RUE VIRGINIA WOOLF", "secteur_action_scolaire": "NORD", "nom_ecole": "Ecole maternelle De Gouges Olympe" }, "geometry": { "type": "Point", "coordinates": [ 1.439761499442563, 43.654164985706458 ] } },
{ "type": "Feature", "properties": { "level_0": 8, "level_1": 0, "ecole": "Faucher Daniel", "niveau": "maternelle", "codsti": 4604801, "index": 35, "codpos": 31100, "rne": "0311616N", "libelle": "CHEM ANDRE MESSAGER", "secteur_action_scolaire": "OUEST", "nom_ecole": "Ecole maternelle Faucher Daniel" }, "geometry": { "type": "Point", "coordinates": [ 1.405170392933944, 43.572770173557274 ] } },
{ "type": "Feature", "properties": { "level_0": 9, "level_1": 0, "ecole": "Fleurance", "niveau": "maternelle", "codsti": 8446852, "index": 38, "codpos": 31300, "rne": "0312682X", "libelle": "PL RAYMOND GRIMAUD", "secteur_action_scolaire": "OUEST", "nom_ecole": "Ecole maternelle Fleurance" }, "geometry": { "type": "Point", "coordinates": [ 1.369788295988318, 43.601223283008537 ] } },
{ "type": "Feature", "properties": { "level_0": 10, "level_1": 0, "ecole": "Fourtanier Alexandre", "niveau": "maternelle", "codsti": 5824046, "index": 40, "codpos": 31000, "rne": "0310224A", "libelle": "RUE DU REMPART ST ETIENNE", "secteur_action_scolaire": "C. EST", "nom_ecole": "Ecole maternelle Fourtanier Alexandre" }, "geometry": { "type": "Point", "coordinates": [ 1.450708398439252, 43.603094850416397 ] } },
{ "type": "Feature", "properties": { "level_0": 11, "level_1": 0, "ecole": "Guillaumet Henri", "niveau": "maternelle", "codsti": 899227, "index": 46, "codpos": 31400, "rne": "0310198X", "libelle": "CHE DE BITET", "secteur_action_scolaire": "SUD EST", "nom_ecole": "Ecole maternelle Guillaumet Henri" }, "geometry": { "type": "Point", "coordinates": [ 1.488649762690443, 43.5772548770016 ] } },
{ "type": "Feature", "properties": { "level_0": 12, "level_1": 0, "ecole": "Jacquier Maurice", "niveau": "maternelle", "codsti": 5462433, "index": 49, "codpos": 31100, "rne": "0311395Y", "libelle": "RUE DU POITOU", "secteur_action_scolaire": "C. OUEST", "nom_ecole": "Ecole maternelle Jacquier Maurice" }, "geometry": { "type": "Point", "coordinates": [ 1.418074786091485, 43.575630376287897 ] } },
{ "type": "Feature", "properties": { "level_0": 13, "level_1": 0, "ecole": "Lakanal", "niveau": "maternelle", "codsti": 5601624, "index": 55, "codpos": 31000, "rne": "0310230G", "libelle": "RUE DU PRIEURE", "secteur_action_scolaire": "C. EST", "nom_ecole": "Ecole maternelle Lakanal" }, "geometry": { "type": "Point", "coordinates": [ 1.44160428686729, 43.601783886322963 ] } },
{ "type": "Feature", "properties": { "level_0": 14, "level_1": 0, "ecole": "Lesseps Ferdinand De", "niveau": "maternelle", "codsti": 8384128, "index": 59, "codpos": 31100, "rne": "0312124R", "libelle": "RUE FERDINAND DE LESSEPS", "secteur_action_scolaire": "OUEST", "nom_ecole": "Ecole maternelle Lesseps Ferdinand De" }, "geometry": { "type": "Point", "coordinates": [ 1.383938985716098, 43.578810061371009 ] } },
{ "type": "Feature", "properties": { "level_0": 15, "level_1": 0, "ecole": "Matabiau", "niveau": "maternelle", "codsti": 4492840, "index": 66, "codpos": 31000, "rne": "0310216S", "libelle": "RUE MATABIAU", "secteur_action_scolaire": "C. EST", "nom_ecole": "Ecole maternelle Matabiau" }, "geometry": { "type": "Point", "coordinates": [ 1.447789456388862, 43.611340221256803 ] } },
{ "type": "Feature", "properties": { "level_0": 16, "level_1": 0, "ecole": "Michel Louise", "niveau": "maternelle", "codsti": 140813, "index": 68, "codpos": 31100, "rne": "0311304Z", "libelle": "RUE JULES AMILHAU", "secteur_action_scolaire": "C. OUEST", "nom_ecole": "Ecole maternelle Michel Louise" }, "geometry": { "type": "Point", "coordinates": [ 1.414939196260395, 43.582011532477438 ] } },
{ "type": "Feature", "properties": { "level_0": 17, "level_1": 0, "ecole": "Michoun B", "niveau": "maternelle", "codsti": 6422456, "index": 71, "codpos": 31500, "rne": "0312573D", "libelle": "RUE DE SAINT TROPEZ", "secteur_action_scolaire": "C. EST", "nom_ecole": "Ecole maternelle Michoun B" }, "geometry": { "type": "Point", "coordinates": [ 1.467542881033459, 43.629791176396971 ] } },
{ "type": "Feature", "properties": { "level_0": 18, "level_1": 0, "ecole": "Pinhous (Les)", "niveau": "maternelle", "codsti": 8346726, "index": 87, "codpos": 31100, "rne": "0311124D", "libelle": "RUE DU RECTEUR DOTTIN", "secteur_action_scolaire": "OUEST", "nom_ecole": "Ecole maternelle Pinhous (Les)" }, "geometry": { "type": "Point", "coordinates": [ 1.398305427614694, 43.560404263526195 ] } },
{ "type": "Feature", "properties": { "level_0": 19, "level_1": 0, "ecole": "Saliège Jules-Géraud (ex Alphand)", "niveau": "maternelle", "codsti": 115256, "index": 95, "codpos": 31200, "rne": "0312892Am", "libelle": "RUE LISE MEITNER", "secteur_action_scolaire": "NORD", "nom_ecole": "Ecole maternelle Saliège Jules-Géraud (ex Alphand)" }, "geometry": { "type": "Point", "coordinates": [ 1.433820761793812, 43.655130680213034 ] } },
{ "type": "Feature", "properties": { "level_0": 20, "level_1": 0, "ecole": "Sept Deniers", "niveau": "maternelle", "codsti": 912031, "index": 98, "codpos": 31200, "rne": "0310222Y", "libelle": "RTE DE BLAGNAC", "secteur_action_scolaire": "NORD", "nom_ecole": "Ecole maternelle Sept Deniers" }, "geometry": { "type": "Point", "coordinates": [ 1.409096269760477, 43.6163804025799 ] } },
{ "type": "Feature", "properties": { "level_0": 21, "level_1": 0, "ecole": "Tabar", "niveau": "maternelle", "codsti": 6508809, "index": 101, "codpos": 31100, "rne": "0311695Z", "libelle": "RUE DE LA SARTHE", "secteur_action_scolaire": "C. OUEST", "nom_ecole": "Ecole maternelle Tabar" }, "geometry": { "type": "Point", "coordinates": [ 1.413696181163892, 43.570381520834211 ] } },
{ "type": "Feature", "properties": { "level_0": 22, "level_1": 0, "ecole": "Tibaous (Les)", "niveau": "maternelle", "codsti": 8454055, "index": 103, "codpos": 31100, "rne": "0312681W", "libelle": "RUE ALBERT CAROVIS", "secteur_action_scolaire": "OUEST", "nom_ecole": "Ecole maternelle Tibaous (Les)" }, "geometry": { "type": "Point", "coordinates": [ 1.38451317132242, 43.550069922224218 ] } },
{ "type": "Feature", "properties": { "level_0": 23, "level_1": 0, "ecole": "Triolet Elsa", "niveau": "maternelle", "codsti": 8371018, "index": 105, "codpos": 31100, "rne": "0312112C", "libelle": "RUE EMILE PELLETIER", "secteur_action_scolaire": "OUEST", "nom_ecole": "Ecole maternelle Triolet Elsa" }, "geometry": { "type": "Point", "coordinates": [ 1.394434690438584, 43.572222033427828 ] } },
{ "type": "Feature", "properties": { "level_0": 24, "level_1": 0, "ecole": "Veil Simone", "niveau": "maternelle", "codsti": 8344053, "index": 106, "codpos": 31100, "rne": "0311661M", "libelle": "CHEMINEMENT ROBERT CAMBERT", "secteur_action_scolaire": "OUEST", "nom_ecole": "Ecole maternelle Veil Simone" }, "geometry": { "type": "Point", "coordinates": [ 1.402636721279038, 43.56833643961815 ] } },
{ "type": "Feature", "properties": { "level_0": 25, "level_1": 0, "ecole": "Vernant", "niveau": "maternelle", "codsti": 1827235, "index": 108, "codpos": 31400, "rne": "0312253F", "libelle": "CHE DES CLOTASSES", "secteur_action_scolaire": "SUD EST", "nom_ecole": "Ecole maternelle Vernant" }, "geometry": { "type": "Point", "coordinates": [ 1.457560343867078, 43.549500157738464 ] } },
{ "type": "Feature", "properties": { "level_0": 26, "level_1": 0, "ecole": "Viollet-le-Duc", "niveau": "maternelle", "codsti": 8376619, "index": 109, "codpos": 31100, "rne": "0312100P", "libelle": "RUE EUGENE VIOLLET LE DUC", "secteur_action_scolaire": "OUEST", "nom_ecole": "Ecole maternelle Viollet-le-Duc" }, "geometry": { "type": "Point", "coordinates": [ 1.391952570126055, 43.581350929105618 ] } },
{ "type": "Feature", "properties": { "level_0": 27, "level_1": 0, "ecole": "Bastide Georges 1", "niveau": "maternelle", "codsti": 8346726, "index": 3, "codpos": 31100, "rne": "0311301W", "libelle": "RUE DU RECTEUR DOTTIN", "secteur_action_scolaire": "OUEST", "nom_ecole": "Ecole maternelle Bastide Georges 1" }, "geometry": { "type": "Point", "coordinates": [ 1.398507873652499, 43.560671881434935 ] } },
{ "type": "Feature", "properties": { "level_0": 28, "level_1": 0, "ecole": "Béarnais (Le)", "niveau": "maternelle", "codsti": 8397238, "index": 4, "codpos": 31200, "rne": "0312232H", "libelle": "PL INTER. ROLAND GARROS", "secteur_action_scolaire": "NORD", "nom_ecole": "Ecole maternelle Béarnais (Le)" }, "geometry": { "type": "Point", "coordinates": [ 1.426256268833871, 43.613453672919078 ] } },
{ "type": "Feature", "properties": { "level_0": 29, "level_1": 0, "ecole": "Benezet", "niveau": "maternelle", "codsti": 771228, "index": 6, "codpos": 31300, "rne": "0310192R", "libelle": "RUE BENEZET", "secteur_action_scolaire": "C. OUEST", "nom_ecole": "Ecole maternelle Benezet" }, "geometry": { "type": "Point", "coordinates": [ 1.427371572953566, 43.589500389093139 ] } },
{ "type": "Feature", "properties": { "level_0": 30, "level_1": 0, "ecole": "Calas", "niveau": "maternelle", "codsti": 7212834, "index": 13, "codpos": 31400, "rne": "0310214P", "libelle": "RUE ACHILLE VIADIEU", "secteur_action_scolaire": "SUD EST", "nom_ecole": "Ecole maternelle Calas" }, "geometry": { "type": "Point", "coordinates": [ 1.444252657039228, 43.58712511251688 ] } },
{ "type": "Feature", "properties": { "level_0": 31, "level_1": 0, "ecole": "Courrège", "niveau": "maternelle", "codsti": 6188842, "index": 19, "codpos": 31400, "rne": "0310196V", "libelle": "AV ANTOINE DE ST EXUPERY", "secteur_action_scolaire": "SUD EST", "nom_ecole": "Ecole maternelle Courrège" }, "geometry": { "type": "Point", "coordinates": [ 1.47601297884932, 43.582080341303971 ] } },
{ "type": "Feature", "properties": { "level_0": 32, "level_1": 0, "ecole": "Curie Marie & Pierre", "niveau": "maternelle", "codsti": 4134451, "index": 20, "codpos": 31200, "rne": "0310218U", "libelle": "CHE LINIERES", "secteur_action_scolaire": "NORD", "nom_ecole": "Ecole maternelle Curie Marie & Pierre" }, "geometry": { "type": "Point", "coordinates": [ 1.444423985676003, 43.6206800284588 ] } },
{ "type": "Feature", "properties": { "level_0": 33, "level_1": 0, "ecole": "Daste André", "niveau": "maternelle", "codsti": 6896030, "index": 22, "codpos": 31400, "rne": "0310212M", "libelle": "RUE DE TOULON", "secteur_action_scolaire": "SUD EST", "nom_ecole": "Ecole maternelle Daste André" }, "geometry": { "type": "Point", "coordinates": [ 1.439163318750185, 43.581002264934348 ] } },
{ "type": "Feature", "properties": { "level_0": 34, "level_1": 0, "ecole": "Dupouy Gaston", "niveau": "maternelle", "codsti": 8410654, "index": 31, "codpos": 31100, "rne": "0312318B", "libelle": "RUE DU PR GASTON DUPOUY", "secteur_action_scolaire": "OUEST", "nom_ecole": "Ecole maternelle Dupouy Gaston" }, "geometry": { "type": "Point", "coordinates": [ 1.380687367213229, 43.580990913338759 ] } },
{ "type": "Feature", "properties": { "level_0": 35, "level_1": 0, "ecole": "Fabre", "niveau": "maternelle", "codsti": 6265615, "index": 32, "codpos": 31000, "rne": "0310197W", "libelle": "RUE SAINT JEAN", "secteur_action_scolaire": "C. EST", "nom_ecole": "Ecole maternelle Fabre" }, "geometry": { "type": "Point", "coordinates": [ 1.443009123786491, 43.597046327864497 ] } },
{ "type": "Feature", "properties": { "level_0": 36, "level_1": 0, "ecole": "Fontaine-Casselardit", "niveau": "maternelle", "codsti": 630425, "index": 39, "codpos": 31300, "rne": "0310207G", "libelle": "PL JEAN BAPTISTE BAUDIN", "secteur_action_scolaire": "C. OUEST", "nom_ecole": "Ecole maternelle Fontaine-Casselardit" }, "geometry": { "type": "Point", "coordinates": [ 1.409555641984736, 43.604458995709003 ] } },
{ "type": "Feature", "properties": { "level_0": 37, "level_1": 0, "ecole": "Grand Selve", "niveau": "maternelle", "codsti": 3308834, "index": 44, "codpos": 31200, "rne": "0310186J", "libelle": "ALLÉE DE GRAND SELVE", "secteur_action_scolaire": "NORD", "nom_ecole": "Ecole maternelle Grand Selve" }, "geometry": { "type": "Point", "coordinates": [ 1.449949648098788, 43.649102908468933 ] } },
{ "type": "Feature", "properties": { "level_0": 38, "level_1": 0, "ecole": "Guilhermy", "niveau": "maternelle", "codsti": 8432120, "index": 45, "codpos": 31100, "rne": "0312870Bm", "libelle": "RUE DE LAS BRUGUES", "secteur_action_scolaire": "OUEST", "nom_ecole": "Ecole maternelle Guilhermy" }, "geometry": { "type": "Point", "coordinates": [ 1.372137799656685, 43.567288436937979 ] } },
{ "type": "Feature", "properties": { "level_0": 39, "level_1": 0, "ecole": "Hyon Georges", "niveau": "maternelle", "codsti": 8388311, "index": 48, "codpos": 31100, "rne": "0310194T", "libelle": "IMP DU BACHAGA BOUALAM", "secteur_action_scolaire": "C. OUEST", "nom_ecole": "Ecole maternelle Hyon Georges" }, "geometry": { "type": "Point", "coordinates": [ 1.409804325797318, 43.579177575337596 ] } },
{ "type": "Feature", "properties": { "level_0": 40, "level_1": 0, "ecole": "Jolimont", "niveau": "maternelle", "codsti": 3372803, "index": 51, "codpos": 31500, "rne": "0310228E", "libelle": "AV HENRI GUILLAUMET", "secteur_action_scolaire": "C. EST", "nom_ecole": "Ecole maternelle Jolimont" }, "geometry": { "type": "Point", "coordinates": [ 1.468591430726674, 43.613908500983108 ] } },
{ "type": "Feature", "properties": { "level_0": 41, "level_1": 0, "ecole": "Lagrange Léo", "niveau": "maternelle", "codsti": 6572839, "index": 54, "codpos": 31400, "rne": "0310200Z", "libelle": "ALL HENRI SELLIER", "secteur_action_scolaire": "SUD EST", "nom_ecole": "Ecole maternelle Lagrange Léo" }, "geometry": { "type": "Point", "coordinates": [ 1.438394249532294, 43.577197885258634 ] } },
{ "type": "Feature", "properties": { "level_0": 42, "level_1": 0, "ecole": "Lamartine", "niveau": "maternelle", "codsti": 2780800, "index": 56, "codpos": 31300, "rne": "0310210K", "libelle": "RUE DES FEUILLANTS", "secteur_action_scolaire": "C. OUEST", "nom_ecole": "Ecole maternelle Lamartine" }, "geometry": { "type": "Point", "coordinates": [ 1.43425386352725, 43.596199669088229 ] } },
{ "type": "Feature", "properties": { "level_0": 43, "level_1": 0, "ecole": "Mailhos Georges", "niveau": "maternelle", "codsti": 8441700, "index": 63, "codpos": 31400, "rne": "0312975Rm", "libelle": "RUE CLAIRE ROMAN", "secteur_action_scolaire": "SUD EST", "nom_ecole": "Ecole maternelle Mailhos Georges" }, "geometry": { "type": "Point", "coordinates": [ 1.497363431287078, 43.567192139707956 ] } },
{ "type": "Feature", "properties": { "level_0": 44, "level_1": 0, "ecole": "Moulin Jean", "niveau": "maternelle", "codsti": 8419316, "index": 75, "codpos": 31400, "rne": "0311396Z", "libelle": "RUE DE BIR HAKEIM", "secteur_action_scolaire": "SUD EST", "nom_ecole": "Ecole maternelle Moulin Jean" }, "geometry": { "type": "Point", "coordinates": [ 1.441380560982207, 43.582352850197282 ] } },
{ "type": "Feature", "properties": { "level_0": 45, "level_1": 0, "ecole": "Oustalous (Les)", "niveau": "maternelle", "codsti": 2624010, "index": 80, "codpos": 31100, "rne": "0312006M", "libelle": "RTE D ESPAGNE", "secteur_action_scolaire": "C. OUEST", "nom_ecole": "Ecole maternelle Oustalous (Les)" }, "geometry": { "type": "Point", "coordinates": [ 1.424266328453772, 43.574761756152604 ] } },
{ "type": "Feature", "properties": { "level_0": 46, "level_1": 0, "ecole": "Ponts Jumeaux", "niveau": "maternelle", "codsti": 9000146, "index": 89, "codpos": 31200, "rne": "0312852Gm", "libelle": "RUE DAYDE", "secteur_action_scolaire": "NORD", "nom_ecole": "Ecole maternelle Ponts Jumeaux" }, "geometry": { "type": "Point", "coordinates": [ 1.421559505672012, 43.614756336856495 ] } },
{ "type": "Feature", "properties": { "level_0": 47, "level_1": 0, "ecole": "Rangueil", "niveau": "maternelle", "codsti": 2896046, "index": 90, "codpos": 31400, "rne": "0310202B", "libelle": "RUE CLAUDE DE FORBIN", "secteur_action_scolaire": "SUD EST", "nom_ecole": "Ecole maternelle Rangueil" }, "geometry": { "type": "Point", "coordinates": [ 1.464339892778249, 43.574803329934269 ] } },
{ "type": "Feature", "properties": { "level_0": 48, "level_1": 0, "ecole": "Ricardie", "niveau": "maternelle", "codsti": 3843204, "index": 93, "codpos": 31400, "rne": "0310203C", "libelle": "AV MARCEL LANGER", "secteur_action_scolaire": "SUD EST", "nom_ecole": "Ecole maternelle Ricardie" }, "geometry": { "type": "Point", "coordinates": [ 1.449639878745991, 43.582450052367292 ] } },
{ "type": "Feature", "properties": { "level_0": 49, "level_1": 0, "ecole": "Sermet", "niveau": "maternelle", "codsti": 6790415, "index": 99, "codpos": 31000, "rne": "0310223Z", "libelle": "RUE DU TAUR", "secteur_action_scolaire": "C. EST", "nom_ecole": "Ecole maternelle Sermet" }, "geometry": { "type": "Point", "coordinates": [ 1.442107933145435, 43.60718317420983 ] } },
{ "type": "Feature", "properties": { "level_0": 50, "level_1": 0, "ecole": "Amidonniers", "niveau": "maternelle", "codsti": 1190413, "index": 1, "codpos": 31000, "rne": "0310243W", "libelle": "ALL DE BRIENNE", "secteur_action_scolaire": "C. EST", "nom_ecole": "Ecole maternelle Amidonniers" }, "geometry": { "type": "Point", "coordinates": [ 1.420515264335671, 43.609503101084684 ] } },
{ "type": "Feature", "properties": { "level_0": 51, "level_1": 0, "ecole": "Becanne Maurice", "niveau": "maternelle", "codsti": 1136014, "index": 5, "codpos": 31300, "rne": "0312004K", "libelle": "IMP BOUTINON", "secteur_action_scolaire": "C. OUEST", "nom_ecole": "Ecole maternelle Becanne Maurice" }, "geometry": { "type": "Point", "coordinates": [ 1.426374458240528, 43.581868047890815 ] } },
{ "type": "Feature", "properties": { "level_0": 52, "level_1": 0, "ecole": "Bonnefoy", "niveau": "maternelle", "codsti": 2716831, "index": 9, "codpos": 31500, "rne": "0310225B", "libelle": "RUE DU FAUBOURG BONNEFOY", "secteur_action_scolaire": "C. EST", "nom_ecole": "Ecole maternelle Bonnefoy" }, "geometry": { "type": "Point", "coordinates": [ 1.453790455117969, 43.616489156924935 ] } },
{ "type": "Feature", "properties": { "level_0": 53, "level_1": 0, "ecole": "Château d'Ancely", "niveau": "maternelle", "codsti": 7308818, "index": 15, "codpos": 31300, "rne": "0311259A", "libelle": "ALL DU VIVARAIS", "secteur_action_scolaire": "OUEST", "nom_ecole": "Ecole maternelle Château d'Ancely" }, "geometry": { "type": "Point", "coordinates": [ 1.39859879744277, 43.618090602882724 ] } },
{ "type": "Feature", "properties": { "level_0": 54, "level_1": 0, "ecole": "Gloire (La)", "niveau": "maternelle", "codsti": 8343043, "index": 43, "codpos": 31500, "rne": "0311743B", "libelle": "IMP DE SOUPETARD", "secteur_action_scolaire": "C. EST", "nom_ecole": "Ecole maternelle Gloire (La)" }, "geometry": { "type": "Point", "coordinates": [ 1.468140489317421, 43.607676235020548 ] } },
{ "type": "Feature", "properties": { "level_0": 55, "level_1": 0, "ecole": "Julien Jules", "niveau": "maternelle", "codsti": 2518456, "index": 52, "codpos": 31400, "rne": "0310190N", "libelle": "AV DES ECOLES JULES JULIEN", "secteur_action_scolaire": "SUD EST", "nom_ecole": "Ecole maternelle Julien Jules" }, "geometry": { "type": "Point", "coordinates": [ 1.45400536036705, 43.574490363964728 ] } },
{ "type": "Feature", "properties": { "level_0": 56, "level_1": 0, "ecole": "Juncasse (La)", "niveau": "maternelle", "codsti": 5433652, "index": 53, "codpos": 31500, "rne": "0310229F", "libelle": "RUE LOUIS PLANA", "secteur_action_scolaire": "C. EST", "nom_ecole": "Ecole maternelle Juncasse (La)" }, "geometry": { "type": "Point", "coordinates": [ 1.471922004881777, 43.617275212800685 ] } },
{ "type": "Feature", "properties": { "level_0": 57, "level_1": 0, "ecole": "Leygue Armand", "niveau": "maternelle", "codsti": 1840039, "index": 60, "codpos": 31500, "rne": "0310213N", "libelle": "CHE DU COIN DE LA MOURE", "secteur_action_scolaire": "C. EST", "nom_ecole": "Ecole maternelle Leygue Armand" }, "geometry": { "type": "Point", "coordinates": [ 1.464392275438318, 43.596549336338299 ] } },
{ "type": "Feature", "properties": { "level_0": 58, "level_1": 0, "ecole": "Littre", "niveau": "maternelle", "codsti": 6915241, "index": 61, "codpos": 31300, "rne": "0311551T", "libelle": "CHE DE TOURNEFEUILLE", "secteur_action_scolaire": "OUEST", "nom_ecole": "Ecole maternelle Littre" }, "geometry": { "type": "Point", "coordinates": [ 1.378124783166325, 43.60791241469699 ] } },
{ "type": "Feature", "properties": { "level_0": 59, "level_1": 0, "ecole": "Macé Jean", "niveau": "maternelle", "codsti": 2496011, "index": 62, "codpos": 31500, "rne": "0310189M", "libelle": "CHE DE DUROUX", "secteur_action_scolaire": "C. EST", "nom_ecole": "Ecole maternelle Macé Jean" }, "geometry": { "type": "Point", "coordinates": [ 1.478453144319812, 43.594959455811342 ] } },
{ "type": "Feature", "properties": { "level_0": 60, "level_1": 0, "ecole": "Merly", "niveau": "maternelle", "codsti": 4595221, "index": 67, "codpos": 31000, "rne": "0310217T", "libelle": "RUE MERLY", "secteur_action_scolaire": "C. EST", "nom_ecole": "Ecole maternelle Merly" }, "geometry": { "type": "Point", "coordinates": [ 1.442677486799382, 43.609449445108098 ] } },
{ "type": "Feature", "properties": { "level_0": 61, "level_1": 0, "ecole": "Michelet", "niveau": "maternelle", "codsti": 4624002, "index": 69, "codpos": 31000, "rne": "0310231H", "libelle": "BD JULES MICHELET", "secteur_action_scolaire": "C. EST", "nom_ecole": "Ecole maternelle Michelet" }, "geometry": { "type": "Point", "coordinates": [ 1.455036820643735, 43.604038342954823 ] } },
{ "type": "Feature", "properties": { "level_0": 62, "level_1": 0, "ecole": "Molière", "niveau": "maternelle", "codsti": 6304027, "index": 72, "codpos": 31300, "rne": "0310239S", "libelle": "RUE SAINTE LUCIE", "secteur_action_scolaire": "C. OUEST", "nom_ecole": "Ecole maternelle Molière" }, "geometry": { "type": "Point", "coordinates": [ 1.431575229670508, 43.593297344905338 ] } },
{ "type": "Feature", "properties": { "level_0": 63, "level_1": 0, "ecole": "Papus", "niveau": "maternelle", "codsti": 3392004, "index": 82, "codpos": 31100, "rne": "0310240T", "libelle": "ALL DE GUYENNE", "secteur_action_scolaire": "C. OUEST", "nom_ecole": "Ecole maternelle Papus" }, "geometry": { "type": "Point", "coordinates": [ 1.413729503410159, 43.575562832438678 ] } },
{ "type": "Feature", "properties": { "level_0": 64, "level_1": 0, "ecole": "Pastel (Le)", "niveau": "maternelle", "codsti": 2604809, "index": 83, "codpos": 31400, "rne": "0312595C", "libelle": "CHE D ESCALLES", "secteur_action_scolaire": "SUD EST", "nom_ecole": "Ecole maternelle Pastel (Le)" }, "geometry": { "type": "Point", "coordinates": [ 1.453541498573324, 43.54532290334199 ] } },
{ "type": "Feature", "properties": { "level_0": 65, "level_1": 0, "ecole": "Pech David", "niveau": "maternelle", "codsti": 6428802, "index": 85, "codpos": 31400, "rne": "0311697B", "libelle": "CHE DE LA SALADE PONSAN", "secteur_action_scolaire": "SUD EST", "nom_ecole": "Ecole maternelle Pech David" }, "geometry": { "type": "Point", "coordinates": [ 1.449518135910621, 43.57151573890971 ] } },
{ "type": "Feature", "properties": { "level_0": 66, "level_1": 0, "ecole": "Petit Gragnague", "niveau": "maternelle", "codsti": 6697604, "index": 86, "codpos": 31200, "rne": "0310220W", "libelle": "RUE DES SPORTS", "secteur_action_scolaire": "NORD", "nom_ecole": "Ecole maternelle Petit Gragnague" }, "geometry": { "type": "Point", "coordinates": [ 1.415531705034221, 43.612310084936823 ] } },
{ "type": "Feature", "properties": { "level_0": 67, "level_1": 0, "ecole": "Ronsard", "niveau": "maternelle", "codsti": 7209600, "index": 94, "codpos": 31100, "rne": "0311742A", "libelle": "RUE VESTREPAIN", "secteur_action_scolaire": "C. OUEST", "nom_ecole": "Ecole maternelle Ronsard" }, "geometry": { "type": "Point", "coordinates": [ 1.407222986850783, 43.584154339678705 ] } },
{ "type": "Feature", "properties": { "level_0": 68, "level_1": 0, "ecole": "Sauzelong", "niveau": "maternelle", "codsti": 4467222, "index": 97, "codpos": 31400, "rne": "0310204D", "libelle": "RUE JEANNE MARVIG", "secteur_action_scolaire": "SUD EST", "nom_ecole": "Ecole maternelle Sauzelong" }, "geometry": { "type": "Point", "coordinates": [ 1.462216059842433, 43.579131477937615 ] } },
{ "type": "Feature", "properties": { "level_0": 69, "level_1": 0, "ecole": "Soupetard", "niveau": "maternelle", "codsti": 6649612, "index": 100, "codpos": 31500, "rne": "0310236N", "libelle": "RUE DE LA SOLIDARITE", "secteur_action_scolaire": "C. EST", "nom_ecole": "Ecole maternelle Soupetard" }, "geometry": { "type": "Point", "coordinates": [ 1.477442633131743, 43.607347437022369 ] } },
{ "type": "Feature", "properties": { "level_0": 70, "level_1": 0, "ecole": "Bourliaguet Léonce", "niveau": "maternelle", "codsti": 8358112, "index": 11, "codpos": 31100, "rne": "0311960M", "libelle": "RUE ARISTIDE MAILLOL", "secteur_action_scolaire": "OUEST", "nom_ecole": "Ecole maternelle Bourliaguet Léonce" }, "geometry": { "type": "Point", "coordinates": [ 1.395521463840501, 43.577457974776948 ] } },
{ "type": "Feature", "properties": { "level_0": 71, "level_1": 0, "ecole": "Canto Laouzetto", "niveau": "maternelle", "codsti": 1404826, "index": 14, "codpos": 31100, "rne": "0313018Mm", "libelle": "CHE CANTO LAOUZETTO", "secteur_action_scolaire": "OUEST", "nom_ecole": "Ecole maternelle Canto Laouzetto" }, "geometry": { "type": "Point", "coordinates": [ 1.387938656208676, 43.559990914317055 ] } },
{ "type": "Feature", "properties": { "level_0": 72, "level_1": 0, "ecole": "Dortis", "niveau": "maternelle", "codsti": 2390457, "index": 29, "codpos": 31200, "rne": "0312977Tm", "libelle": "CHE DE DORTIS", "secteur_action_scolaire": "NORD", "nom_ecole": "Ecole maternelle Dortis" }, "geometry": { "type": "Point", "coordinates": [ 1.435767344329389, 43.666554312500409 ] } },
{ "type": "Feature", "properties": { "level_0": 73, "level_1": 0, "ecole": "Fénelon", "niveau": "maternelle", "codsti": 2739205, "index": 36, "codpos": 31200, "rne": "0313046Tm", "libelle": "RUE FENELON", "secteur_action_scolaire": "NORD", "nom_ecole": "Ecole maternelle Fénelon" }, "geometry": { "type": "Point", "coordinates": [ 1.453231491522516, 43.649601626805776 ] } },
{ "type": "Feature", "properties": { "level_0": 74, "level_1": 0, "ecole": "France Anatole", "niveau": "maternelle", "codsti": 4057617, "index": 41, "codpos": 31400, "rne": "0310211L", "libelle": "AV DE LESPINET", "secteur_action_scolaire": "SUD EST", "nom_ecole": "Ecole maternelle France Anatole" }, "geometry": { "type": "Point", "coordinates": [ 1.463038884384642, 43.585966995705121 ] } },
{ "type": "Feature", "properties": { "level_0": 75, "level_1": 0, "ecole": "Hugo Victor", "niveau": "maternelle", "codsti": 2909605, "index": 47, "codpos": 31100, "rne": "0311613K", "libelle": "IMP FRANCOIS FOULQUIER", "secteur_action_scolaire": "OUEST", "nom_ecole": "Ecole maternelle Hugo Victor" }, "geometry": { "type": "Point", "coordinates": [ 1.403192957565663, 43.56527430490295 ] } },
{ "type": "Feature", "properties": { "level_0": 76, "level_1": 0, "ecole": "Lapujade", "niveau": "maternelle", "codsti": 83241, "index": 57, "codpos": 31200, "rne": "0311250R", "libelle": "RTE D ALBI", "secteur_action_scolaire": "NORD", "nom_ecole": "Ecole maternelle Lapujade" }, "geometry": { "type": "Point", "coordinates": [ 1.460725543534509, 43.628712999877244 ] } },
{ "type": "Feature", "properties": { "level_0": 77, "level_1": 0, "ecole": "Monnet Jean", "niveau": "maternelle", "codsti": 2544003, "index": 73, "codpos": 31200, "rne": "0310215R", "libelle": "CHE DE L EGLISE DE LALANDE", "secteur_action_scolaire": "NORD", "nom_ecole": "Ecole maternelle Monnet Jean" }, "geometry": { "type": "Point", "coordinates": [ 1.431687897391311, 43.646670308291988 ] } },
{ "type": "Feature", "properties": { "level_0": 78, "level_1": 0, "ecole": "Musset Alfred De", "niveau": "maternelle", "codsti": 3161624, "index": 76, "codpos": 31200, "rne": "0310221X", "libelle": "RUE DU GENERAL HOCHE", "secteur_action_scolaire": "NORD", "nom_ecole": "Ecole maternelle Musset Alfred De" }, "geometry": { "type": "Point", "coordinates": [ 1.430147897540749, 43.623199255869473 ] } },
{ "type": "Feature", "properties": { "level_0": 79, "level_1": 0, "ecole": "Negreneys", "niveau": "maternelle", "codsti": 169655, "index": 77, "codpos": 31200, "rne": "0310219V", "libelle": "RUE DES ANGES", "secteur_action_scolaire": "NORD", "nom_ecole": "Ecole maternelle Negreneys" }, "geometry": { "type": "Point", "coordinates": [ 1.438482551197953, 43.62126593274003 ] } },
{ "type": "Feature", "properties": { "level_0": 80, "level_1": 0, "ecole": "Niboul", "niveau": "maternelle", "codsti": 9000173, "index": 78, "codpos": 31200, "rne": "0312871Cm", "libelle": "RUE ARRIA LY", "secteur_action_scolaire": "NORD", "nom_ecole": "Ecole maternelle Niboul" }, "geometry": { "type": "Point", "coordinates": [ 1.450201873819664, 43.640010461185092 ] } },
{ "type": "Feature", "properties": { "level_0": 81, "level_1": 0, "ecole": "Patte d'Oie", "niveau": "maternelle", "codsti": 2083233, "index": 84, "codpos": 31300, "rne": "0310241U", "libelle": "RUE DE CUGNAUX", "secteur_action_scolaire": "C. OUEST", "nom_ecole": "Ecole maternelle Patte d'Oie" }, "geometry": { "type": "Point", "coordinates": [ 1.426568183166643, 43.594131463311818 ] } },
{ "type": "Feature", "properties": { "level_0": 82, "level_1": 0, "ecole": "Polygone", "niveau": "maternelle", "codsti": 8408124, "index": 88, "codpos": 31300, "rne": "0311783V", "libelle": "RUE VINCENT SCOTTO", "secteur_action_scolaire": "C. OUEST", "nom_ecole": "Ecole maternelle Polygone" }, "geometry": { "type": "Point", "coordinates": [ 1.416850200237768, 43.59754791621765 ] } },
{ "type": "Feature", "properties": { "level_0": 83, "level_1": 0, "ecole": "Renan Ernest", "niveau": "maternelle", "codsti": 364857, "index": 92, "codpos": 31200, "rne": "0310227D", "libelle": "CHE D AUDIBERT", "secteur_action_scolaire": "NORD", "nom_ecole": "Ecole maternelle Renan Ernest" }, "geometry": { "type": "Point", "coordinates": [ 1.443218349176922, 43.63668221695157 ] } },
{ "type": "Feature", "properties": { "level_0": 84, "level_1": 0, "ecole": "Terrasse (La)", "niveau": "maternelle", "codsti": 8345410, "index": 102, "codpos": 31500, "rne": "0311744C", "libelle": "IMP EUGENE TRUTAT", "secteur_action_scolaire": "SUD EST", "nom_ecole": "Ecole maternelle Terrasse (La)" }, "geometry": { "type": "Point", "coordinates": [ 1.485618281866707, 43.583509172548077 ] } },
{ "type": "Feature", "properties": { "level_0": 85, "level_1": 0, "ecole": "Tillion Germaine", "niveau": "maternelle", "codsti": 9000400, "index": 104, "codpos": 31100, "rne": "0312943Fm", "libelle": "RUE CESARIA EVORA", "secteur_action_scolaire": "OUEST", "nom_ecole": "Ecole maternelle Tillion Germaine" }, "geometry": { "type": "Point", "coordinates": [ 1.391410880179195, 43.58425696608947 ] } },
{ "type": "Feature", "properties": { "level_0": 86, "level_1": 0, "ecole": "Vergers (Les)", "niveau": "maternelle", "codsti": 8361142, "index": 107, "codpos": 31100, "rne": "0312032R", "libelle": "IMP DES VERGERS", "secteur_action_scolaire": "OUEST", "nom_ecole": "Ecole maternelle Vergers (Les)" }, "geometry": { "type": "Point", "coordinates": [ 1.398487333943913, 43.581286932992626 ] } },
{ "type": "Feature", "properties": { "level_0": 87, "level_1": 0, "ecole": "Duportal Armand", "niveau": "maternelle", "codsti": 5782400, "index": 30, "codpos": 31300, "rne": "0310206F", "libelle": "RUE RECLUSANE", "secteur_action_scolaire": "C. OUEST", "nom_ecole": "Ecole maternelle Duportal Armand" }, "geometry": { "type": "Point", "coordinates": [ 1.431855361062429, 43.598955508094498 ] } },
{ "type": "Feature", "properties": { "level_0": 88, "level_1": 0, "ecole": "Falcucci Clément", "niveau": "maternelle", "codsti": 8388311, "index": 33, "codpos": 31100, "rne": "0310193S", "libelle": "IMP DU BACHAGA BOUALAM", "secteur_action_scolaire": "C. OUEST", "nom_ecole": "Ecole maternelle Falcucci Clément" }, "geometry": { "type": "Point", "coordinates": [ 1.408441620784889, 43.57984912456584 ] } },
{ "type": "Feature", "properties": { "level_0": 89, "level_1": 0, "ecole": "Falguière", "niveau": "maternelle", "codsti": 297654, "index": 34, "codpos": 31000, "rne": "0310244X", "libelle": "RUE D ARTAGNAN", "secteur_action_scolaire": "C. EST", "nom_ecole": "Ecole maternelle Falguière" }, "geometry": { "type": "Point", "coordinates": [ 1.43032637248539, 43.607488319559714 ] } },
{ "type": "Feature", "properties": { "level_0": 90, "level_1": 0, "ecole": "Ferry Jules", "niveau": "maternelle", "codsti": 2774454, "index": 37, "codpos": 31200, "rne": "0310187K", "libelle": "AV JULES FERRY", "secteur_action_scolaire": "NORD", "nom_ecole": "Ecole maternelle Ferry Jules" }, "geometry": { "type": "Point", "coordinates": [ 1.432359835849303, 43.633143761164334 ] } },
{ "type": "Feature", "properties": { "level_0": 91, "level_1": 0, "ecole": "Galia Jean", "niveau": "maternelle", "codsti": 1328043, "index": 42, "codpos": 31100, "rne": "0311622V", "libelle": "CHEM ROBERT CAMBERT", "secteur_action_scolaire": "OUEST", "nom_ecole": "Ecole maternelle Galia Jean" }, "geometry": { "type": "Point", "coordinates": [ 1.403196600486274, 43.568416830343565 ] } },
{ "type": "Feature", "properties": { "level_0": 92, "level_1": 0, "ecole": "Jaurès Jean", "niveau": "maternelle", "codsti": 387231, "index": 50, "codpos": 31400, "rne": "0310188L", "libelle": "RUE D AURIOL", "secteur_action_scolaire": "SUD EST", "nom_ecole": "Ecole maternelle Jaurès Jean" }, "geometry": { "type": "Point", "coordinates": [ 1.452073186918476, 43.588507841088202 ] } },
{ "type": "Feature", "properties": { "level_0": 93, "level_1": 0, "ecole": "Lardenne", "niveau": "maternelle", "codsti": 6531244, "index": 58, "codpos": 31100, "rne": "0310237P", "libelle": "PL JACQUES SAUVEGRAIN", "secteur_action_scolaire": "OUEST", "nom_ecole": "Ecole maternelle Lardenne" }, "geometry": { "type": "Point", "coordinates": [ 1.378220591359221, 43.589213224891445 ] } },
{ "type": "Feature", "properties": { "level_0": 94, "level_1": 0, "ecole": "Maourine (La)", "niveau": "maternelle", "codsti": 8439231, "index": 64, "codpos": 31200, "rne": "0312674N", "libelle": "AV M BOURGES MAUNOURY", "secteur_action_scolaire": "NORD", "nom_ecole": "Ecole maternelle Maourine (La)" }, "geometry": { "type": "Point", "coordinates": [ 1.44896875562496, 43.629772430116439 ] } },
{ "type": "Feature", "properties": { "level_0": 95, "level_1": 0, "ecole": "Marengo-Périole", "niveau": "maternelle", "codsti": 4374411, "index": 65, "codpos": 31500, "rne": "0310234L", "libelle": "RUE DU MARECHAL GALLIENI", "secteur_action_scolaire": "C. EST", "nom_ecole": "Ecole maternelle Marengo-Périole" }, "geometry": { "type": "Point", "coordinates": [ 1.460632848107545, 43.616780716612475 ] } },
{ "type": "Feature", "properties": { "level_0": 96, "level_1": 0, "ecole": "Michoun A", "niveau": "maternelle", "codsti": 4140858, "index": 70, "codpos": 31500, "rne": "0312229E", "libelle": "IMP GABRIEL LIPPMANN", "secteur_action_scolaire": "C. EST", "nom_ecole": "Ecole maternelle Michoun A" }, "geometry": { "type": "Point", "coordinates": [ 1.466719663087195, 43.626463979543161 ] } },
{ "type": "Feature", "properties": { "level_0": 97, "level_1": 0, "ecole": "Montaudran", "niveau": "maternelle", "codsti": 8356602, "index": 74, "codpos": 31400, "rne": "0312295B", "libelle": "IMP LUCIEN BOSSOUTROT", "secteur_action_scolaire": "SUD EST", "nom_ecole": "Ecole maternelle Montaudran" }, "geometry": { "type": "Point", "coordinates": [ 1.483963876063022, 43.574367196805333 ] } },
{ "type": "Feature", "properties": { "level_0": 98, "level_1": 0, "ecole": "Nougaro", "niveau": "maternelle", "codsti": 4652854, "index": 79, "codpos": 31200, "rne": "0310245Y", "libelle": "AV DES MINIMES", "secteur_action_scolaire": "NORD", "nom_ecole": "Ecole maternelle Nougaro" }, "geometry": { "type": "Point", "coordinates": [ 1.436063679676348, 43.619302515026497 ] } },
{ "type": "Feature", "properties": { "level_0": 99, "level_1": 0, "ecole": "Pagnol Marcel", "niveau": "maternelle", "codsti": 8347838, "index": 81, "codpos": 31300, "rne": "0310209J", "libelle": "RUE RENE CRABOS", "secteur_action_scolaire": "C. OUEST", "nom_ecole": "Ecole maternelle Pagnol Marcel" }, "geometry": { "type": "Point", "coordinates": [ 1.401348559602064, 43.596094500038689 ] } },
{ "type": "Feature", "properties": { "level_0": 100, "level_1": 0, "ecole": "Reille", "niveau": "maternelle", "codsti": 5811242, "index": 91, "codpos": 31500, "rne": "0312624J", "libelle": "RUE REILLE", "secteur_action_scolaire": "C. EST", "nom_ecole": "Ecole maternelle Reille" }, "geometry": { "type": "Point", "coordinates": [ 1.459278628323921, 43.610023384804698 ] } },
{ "type": "Feature", "properties": { "level_0": 101, "level_1": 0, "ecole": "Sarrat", "niveau": "maternelle", "codsti": 2483207, "index": 96, "codpos": 31000, "rne": "0310235M", "libelle": "PLACE DUPUY", "secteur_action_scolaire": "C. EST", "nom_ecole": "Ecole maternelle Sarrat" }, "geometry": { "type": "Point", "coordinates": [ 1.45489286203595, 43.59950666877139 ] } },
{ "type": "Feature", "properties": { "level_0": 102, "level_1": 0, "ecole": "Zay Jean", "niveau": "maternelle", "codsti": 8445740, "index": 110, "codpos": 31200, "rne": "0312792Sm", "libelle": "RUE DES BOUQUETINS", "secteur_action_scolaire": "NORD", "nom_ecole": "Ecole maternelle Zay Jean" }, "geometry": { "type": "Point", "coordinates": [ 1.447508568593012, 43.641203549988205 ] } },
{ "type": "Feature", "properties": { "level_0": 103, "level_1": 0, "ecole": "Borderouge Nord", "niveau": "maternelle", "codsti": 8452239, "index": 10, "codpos": 31200, "rne": "0312708A", "libelle": "RUE ANTOINE PASTRE", "secteur_action_scolaire": "NORD", "nom_ecole": "Ecole maternelle Borderouge Nord" }, "geometry": { "type": "Point", "coordinates": [ 1.45493620215744, 43.641166893748128 ] } },
{ "type": "Feature", "properties": { "level_0": 104, "level_1": 0, "ecole": "Buffon", "niveau": "maternelle", "codsti": 8395014, "index": 12, "codpos": 31100, "rne": "0310205E", "libelle": "RUE DE GIRONIS", "secteur_action_scolaire": "OUEST", "nom_ecole": "Ecole maternelle Buffon" }, "geometry": { "type": "Point", "coordinates": [ 1.412436096351319, 43.564513693089744 ] } },
{ "type": "Feature", "properties": { "level_0": 105, "level_1": 0, "ecole": "Chaubet Jean", "niveau": "maternelle", "codsti": 601644, "index": 17, "codpos": 31500, "rne": "0310199Y", "libelle": "PLACE VICTOR BASCH", "secteur_action_scolaire": "C. EST", "nom_ecole": "Ecole maternelle Chaubet Jean" }, "geometry": { "type": "Point", "coordinates": [ 1.467788535542773, 43.599813639946547 ] } },
{ "type": "Feature", "properties": { "level_0": 106, "level_1": 0, "ecole": "Claudel Camille", "niveau": "maternelle", "codsti": 8427437, "index": 18, "codpos": 31100, "rne": "0311548P", "libelle": "PLACE DE TEL AVIV", "secteur_action_scolaire": "OUEST", "nom_ecole": "Ecole maternelle Claudel Camille" }, "geometry": { "type": "Point", "coordinates": [ 1.398156312064649, 43.565141780289117 ] } },
{ "type": "Feature", "properties": { "level_0": 107, "level_1": 0, "ecole": "Cuvier", "niveau": "maternelle", "codsti": 8440853, "index": 21, "codpos": 31200, "rne": "0310226C", "libelle": "RUE SERGE GAINSBOURG", "secteur_action_scolaire": "NORD", "nom_ecole": "Ecole maternelle Cuvier" }, "geometry": { "type": "Point", "coordinates": [ 1.463096439377579, 43.636981157759351 ] } },
{ "type": "Feature", "properties": { "level_0": 108, "level_1": 0, "ecole": "Dieuzaide Jean", "niveau": "maternelle", "codsti": 3225654, "index": 27, "codpos": 31200, "rne": "0310185H", "libelle": "CHE DE LA GLACIERE", "secteur_action_scolaire": "NORD", "nom_ecole": "Ecole maternelle Dieuzaide Jean" }, "geometry": { "type": "Point", "coordinates": [ 1.419470782847779, 43.64492871933588 ] } },
{ "type": "Feature", "properties": { "level_0": 109, "level_1": 0, "ecole": "Dolto Françoise", "niveau": "maternelle", "codsti": 8342135, "index": 28, "codpos": 31500, "rne": "0311910H", "libelle": "RUE DE DAKAR", "secteur_action_scolaire": "SUD EST", "nom_ecole": "Ecole maternelle Dolto Françoise" }, "geometry": { "type": "Point", "coordinates": [ 1.479334554589729, 43.586411332299342 ] } }
]
}
